City_ID,City,Country,Lat,Lng,Max Temp,Humidity,Cloudiness,Wind Speed,Current Description
0,Kununurra,AU,-15.7667,128.7333,298.14,94,90,0.0,overcast clouds
1,Souillac,MU,-20.5167,57.5167,299.36,78,40,4.12,scattered clouds
2,Hobart,AU,-42.8794,147.3294,286.51,87,100,2.06,overcast clouds
3,Mangai,CD,-4.05,19.5333,296.58,84,71,0.36,moderate rain
4,Kaisiadorys,LT,54.8667,24.45,274.24,86,100,2.11,overcast clouds
5,Ushuaia,AR,-54.8,-68.3,281.94,81,100,9.26,moderate rain
6,Vaini,TO,-21.2,-175.2,300.38,81,100,5.63,light rain
7,Busselton,AU,-33.65,115.3333,288.18,90,100,3.72,overcast clouds
8,Kristinehamn,SE,59.3098,14.1081,274.46,81,100,4.25,overcast clouds
9,Atuona,PF,-9.8,-139.0333,299.33,76,3,8.36,light rain
10,Kineta,GR,37.9709,23.2183,284.05,63,0,2.13,clear sky
11,Bluff,NZ,-46.6,168.3333,286.32,86,9,3.59,clear sky
12,Ellsworth,US,44.5434,-68.4195,275.93,75,100,4.12,overcast clouds
13,Asau,RO,46.4333,26.4,273.86,93,62,2.28,broken clouds
14,Petrokamenskoye,RU,57.716,60.6484,264.19,95,100,2.6,overcast clouds
15,Rikitea,PF,-23.1203,-134.9692,299.05,69,100,1.38,overcast clouds
16,Jamestown,US,42.097,-79.2353,282.88,42,0,2.57,clear sky
17,Khatanga,RU,71.9667,102.5,258.73,95,100,5.12,overcast clouds
18,Barrow,US,71.2906,-156.7887,247.16,84,100,4.12,overcast clouds
19,Gouyave,GD,12.1646,-61.7296,301.58,70,20,9.77,few clouds
20,Timmins,CA,48.4669,-81.3331,277.05,52,75,8.23,broken clouds
21,Pacific Grove,US,36.6177,-121.9166,284.7,56,20,8.94,few clouds
22,Rahimatpur,IN,17.6,74.2,294.19,15,7,1.84,clear sky
23,Albany,US,42.6001,-73.9662,282.91,45,5,0.89,clear sky
24,Joshimath,IN,30.5667,79.5667,282.32,35,0,3.99,clear sky
25,Bredasdorp,ZA,-34.5322,20.0403,294.44,78,99,3.74,overcast clouds
26,Cabo San Lucas,MX,22.8909,-109.9124,297.93,42,0,2.06,clear sky
27,Anqiu,CN,36.4342,119.1925,271.4,58,100,3.6,overcast clouds
28,Port Blair,IN,11.6667,92.75,296.17,83,24,1.03,mist
29,Tuktoyaktuk,CA,69.4541,-133.0374,245.15,69,100,3.09,light snow
30,Hermanus,ZA,-34.4187,19.2345,295.26,83,97,4.69,overcast clouds
31,Atambua,ID,-9.1061,124.8925,295.82,95,100,1.7,overcast clouds
32,Vila Do Maio,CV,15.1333,-23.2167,295.59,76,0,10.18,clear sky
33,Yellowknife,CA,62.456,-114.3525,246.44,76,20,4.12,few clouds
34,Arraial Do Cabo,BR,-22.9661,-42.0278,304.13,70,75,5.14,light rain
35,Broken Hill,AU,-31.95,141.4333,292.8,35,0,3.12,clear sky
36,Punta Arenas,CL,-53.15,-70.9167,283.21,62,75,11.32,light rain
37,Severo-Kurilsk,RU,50.6789,156.125,269.79,89,100,16.8,snow
38,Calbuco,CL,-41.768,-73.1273,289.71,74,100,3.57,overcast clouds
39,Georgetown,MY,5.4112,100.3354,298.12,94,40,1.54,light rain
40,Yar-Sale,RU,66.8333,70.8333,254.5,99,100,3.91,overcast clouds
41,Talnakh,RU,69.4865,88.3972,256.6,94,100,5.09,light snow
42,Leningradskiy,RU,69.3833,178.4167,240.52,96,100,4.08,overcast clouds
43,Indian Harbour Beach,US,28.1489,-80.5884,298.18,60,0,4.12,clear sky
44,San Isidro,PE,-12.1167,-77.05,298.92,69,0,2.57,light rain
45,San Blas,MX,21.5167,-105.2667,304.09,47,17,3.33,few clouds
46,Sur,OM,22.5667,59.5289,295.71,50,10,2.82,clear sky
47,Hilo,US,19.7297,-155.09,297.1,81,0,2.68,clear sky
48,New Norfolk,AU,-42.7826,147.0587,286.32,68,100,1.19,overcast clouds
49,Ponta Do Sol,PT,32.6667,-17.1,289.26,51,11,5.69,few clouds
50,Naron,ES,43.5167,-8.1528,288.62,74,38,2.67,scattered clouds
51,Lebu,CL,-37.6167,-73.65,291.37,64,41,5.72,scattered clouds
52,Butaritari,KI,3.0707,172.7902,300.16,70,100,6.02,overcast clouds
53,Rio Gallegos,AR,-51.6226,-69.2181,284.18,37,100,13.38,overcast clouds
54,Sakhon Nakhon,TH,17.1612,104.1472,292.01,72,62,5.46,broken clouds
55,Nome,US,64.5011,-165.4064,245.19,76,0,0.0,clear sky
56,Redkino,RU,56.6475,36.2967,268.72,87,98,5.85,overcast clouds
57,East London,ZA,-33.0153,27.9116,297.67,94,100,3.6,light rain
58,Bubaque,GW,11.2833,-15.8333,297.22,78,4,8.72,clear sky
59,Hervey Bay,AU,-25.2986,152.8535,296.95,86,24,5.49,few clouds
60,Aklavik,CA,68.2191,-135.0107,235.15,67,20,1.54,few clouds
61,Tiksi,RU,71.6872,128.8694,243.78,98,94,2.85,overcast clouds
62,Mahebourg,MU,-20.4081,57.7,299.4,78,40,4.12,scattered clouds
63,Chuy,UY,-33.6971,-53.4616,301.48,54,100,4.97,light rain
64,Yukamenskoye,RU,57.8865,52.2416,266.2,96,100,2.75,light snow
65,Chicama,PE,-7.8447,-79.1469,296.45,59,91,3.79,overcast clouds
66,Bluefields,NI,12.0137,-83.7635,301.19,74,40,3.09,scattered clouds
67,Zacatepec,MX,18.65,-99.2,303.51,22,11,1.01,few clouds
68,Spring Valley,US,36.108,-115.245,285.12,43,40,8.23,scattered clouds
69,Superior,US,46.7208,-92.1041,278.42,83,100,3.09,overcast clouds
70,Valladolid,ES,41.5833,-4.6667,282.47,59,100,2.77,overcast clouds
71,Kerouane,GN,9.2667,-9.0167,304.12,26,100,0.86,overcast clouds
72,Faanui,PF,-16.4833,-151.75,300.56,67,10,5.91,clear sky
73,Roald,NO,62.5833,6.1333,279.12,93,0,2.06,clear sky
74,Port Alfred,ZA,-33.5906,26.891,296.58,95,100,2.24,light rain
75,Correntina,BR,-13.3433,-44.6367,306.56,31,70,2.48,broken clouds
76,Qianguo,CN,45.1171,124.8568,254.83,95,5,0.45,clear sky
77,Comodoro Rivadavia,AR,-45.8667,-67.5,292.07,24,0,9.77,clear sky
78,Guatire,VE,10.4762,-66.5427,299.3,79,66,2.47,broken clouds
79,Meybod,IR,32.2501,54.0166,279.16,71,100,1.34,overcast clouds
80,Wum,CM,6.3833,10.0667,295.79,20,100,1.21,overcast clouds
81,Hovd,MN,48.0056,91.6419,257.13,85,92,0.93,overcast clouds
82,Terrace,CA,54.5163,-128.6035,270.1,86,75,2.06,broken clouds
83,Nikolskoye,RU,59.7035,30.7861,272.09,97,94,1.54,overcast clouds
84,Praya,CV,14.9215,-23.5087,295.45,68,75,11.32,broken clouds
85,Puerto Del Rosario,ES,28.5004,-13.8627,291.01,72,20,2.06,few clouds
86,Waipawa,NZ,-41.4122,175.5153,287.98,95,100,7.0,overcast clouds
87,Zhigansk,RU,66.7697,123.3711,233.05,100,63,1.7,broken clouds
88,Vestmanna,FO,62.1564,-7.1664,280.66,100,100,8.75,mist
89,Henties Bay,NA,-22.116,14.2845,292.05,84,70,3.8,broken clouds
90,Kutum,SD,14.2,24.6667,291.39,21,7,6.37,clear sky
91,Luderitz,NA,-26.6481,15.1594,292.38,78,0,7.76,clear sky
92,Kapaa,US,22.0752,-159.319,296.33,83,20,8.23,light rain
93,Meulaboh,ID,4.1363,96.1285,297.96,87,100,1.26,overcast clouds
94,Cidreira,BR,-30.1811,-50.2056,297.89,84,100,8.56,overcast clouds
95,Antalaha,MG,-14.9003,50.2788,296.78,88,94,2.87,overcast clouds
96,Kodiak,US,57.79,-152.4072,273.88,86,20,4.63,few clouds
97,Krasnyy Chikoy,RU,50.3643,108.7512,252.85,100,68,0.46,broken clouds
98,Shingu,JP,33.7333,135.9833,273.62,64,2,4.48,clear sky
99,Mataura,NZ,-46.1927,168.8643,282.86,98,37,1.18,scattered clouds
100,Creel,MX,27.75,-107.6333,283.3,14,100,7.57,overcast clouds
101,Lata,PT,40.1629,-8.3327,289.71,64,100,3.68,overcast clouds
102,La Ronge,CA,55.1001,-105.2842,253.29,54,20,4.12,few clouds
103,Smithers,CA,54.7804,-127.1743,265.33,79,40,1.54,scattered clouds
104,Longyearbyen,SJ,78.2186,15.6401,273.06,93,100,3.09,snow
105,Thai Binh,VN,20.45,106.3333,289.23,80,100,2.22,overcast clouds
106,Fukue,JP,32.6881,128.8419,282.02,72,100,8.87,overcast clouds
107,Hithadhoo,MV,-0.6,73.0833,300.52,73,22,4.39,few clouds
108,The Valley,AI,18.217,-63.0578,302.07,69,20,4.12,few clouds
109,Baruun-Urt,MN,46.6806,113.2792,257.25,86,100,2.78,overcast clouds
110,Alice Springs,AU,-23.7,133.8833,292.9,56,1,0.0,clear sky
111,Port Augusta,AU,-32.5,137.7667,293.81,31,0,1.93,clear sky
112,Gaspe,CA,48.8334,-64.4819,268.1,53,100,4.63,overcast clouds
113,Paamiut,GL,61.994,-49.6678,255.55,81,1,5.97,clear sky
114,Carnarvon,AU,-24.8667,113.6333,296.49,74,94,7.94,overcast clouds
115,Guarapari,BR,-20.6667,-40.4975,301.42,81,100,6.89,overcast clouds
116,Iqaluit,CA,63.7506,-68.5145,248.0,77,100,1.54,light snow
117,Puerto Baquerizo Moreno,EC,-0.9,-89.6,302.7,74,20,2.57,light rain
118,Pittsburg,US,38.028,-121.8847,284.7,41,0,8.23,clear sky
119,Mount Gambier,AU,-37.8333,140.7667,285.8,73,100,2.14,overcast clouds
120,Ibra,OM,22.6906,58.5334,294.49,34,46,0.78,scattered clouds
121,Uyar,RU,55.81,94.3153,259.21,95,100,3.07,overcast clouds
122,Cape Town,ZA,-33.9258,18.4232,294.88,71,20,9.26,few clouds
123,Los Llanos De Aridane,ES,28.6585,-17.9182,290.01,85,20,9.26,few clouds
124,Shakhtinsk,KZ,49.71,72.5872,250.46,90,100,1.77,overcast clouds
125,Avarua,CK,-21.2078,-159.775,301.18,83,40,2.06,scattered clouds
126,Kirakira,SB,-10.4544,161.9205,300.19,84,100,2.54,overcast clouds
127,Dikson,RU,73.5069,80.5464,258.37,94,100,6.98,light snow
128,Bodden Town,KY,19.2833,-81.25,302.15,70,40,4.63,scattered clouds
129,Hobyo,SO,5.3505,48.5268,297.77,76,0,7.48,clear sky
130,Bocas Del Toro,PA,9.3333,-82.25,299.66,70,5,4.18,clear sky
131,Naze,JP,28.3667,129.4833,285.66,78,100,4.47,light rain
132,Isangel,VU,-19.55,169.2667,294.21,94,20,0.0,few clouds
133,Saint George,US,37.1041,-113.5841,281.48,71,100,2.24,overcast clouds
134,Nagahama,JP,35.3833,136.2667,273.7,92,90,6.89,light snow
135,Norman Wells,CA,65.282,-126.8329,240.17,75,20,1.03,few clouds
136,Upernavik,GL,72.7868,-56.1549,244.41,93,100,3.41,overcast clouds
137,Kokopo,PG,-4.352,152.2633,298.2,88,100,1.98,light rain
138,Sao Filipe,CV,14.8961,-24.4956,294.7,76,16,6.11,few clouds
139,Codrington,AU,-38.2667,141.9667,285.42,73,100,3.57,overcast clouds
140,Praia Da Vitoria,PT,38.7333,-27.0667,288.29,63,20,2.83,few clouds
141,Ribeira Grande,PT,38.5167,-28.7,288.37,63,20,3.6,few clouds
142,Nurota,UZ,40.5614,65.6886,274.99,82,53,1.33,broken clouds
143,Lagos,NG,6.5833,3.75,303.33,78,5,3.1,clear sky
144,Verkhoyansk,RU,67.5447,133.385,225.23,100,64,0.73,broken clouds
145,Salisbury,GB,51.0693,-1.7957,282.31,77,0,4.63,clear sky
146,Cabo Rojo,PR,18.0866,-67.1457,301.92,68,33,0.45,scattered clouds
147,Willowmore,ZA,-33.2926,23.4895,293.71,71,23,5.07,few clouds
148,Harper,LR,4.375,-7.7169,300.17,78,73,1.89,light rain
149,Whitehorse,CA,60.7161,-135.0538,258.76,81,75,1.03,broken clouds
150,Guerrero Negro,MX,27.9769,-114.0611,290.67,52,96,5.32,overcast clouds
151,Namibe,AO,-15.1961,12.1522,295.69,79,100,3.66,overcast clouds
152,Thompson,CA,55.7435,-97.8558,252.24,65,75,6.17,broken clouds
153,Sorland,NO,67.667,12.6934,280.07,91,100,9.12,overcast clouds
154,Vardo,NO,70.3705,31.1107,273.14,93,75,8.75,light rain
155,Chake Chake,TZ,-5.2459,39.7666,298.89,80,100,3.76,overcast clouds
156,Khani,GE,41.9563,42.9566,268.91,82,100,2.09,overcast clouds
157,Kaitangata,NZ,-46.2817,169.8464,285.9,93,100,1.77,overcast clouds
158,Caravelas,BR,-17.7125,-39.2481,302.07,61,100,4.07,overcast clouds
159,Port Moresby,PG,-9.4431,147.1797,296.83,94,40,2.57,scattered clouds
160,Kwinana,AU,-32.25,115.7667,293.9,86,100,3.98,overcast clouds
161,Udachnyy,RU,66.4167,112.4,250.62,83,100,1.18,overcast clouds
162,Pevek,RU,69.7008,170.3133,232.48,100,100,3.13,overcast clouds
163,Karaton,ID,-6.3424,106.1045,295.85,95,91,2.26,overcast clouds
164,Alofi,NU,-19.0595,-169.9187,296.09,100,100,2.06,moderate rain
165,Manoharpur,IN,27.3,75.95,289.25,20,1,2.15,clear sky
166,San Matias,BO,-16.3667,-58.4,307.23,47,82,4.09,broken clouds
167,Bethel,US,41.3712,-73.414,285.02,35,0,5.14,clear sky
168,Abu Samrah,SY,35.3029,37.1841,277.99,61,13,3.06,few clouds
169,Port Lincoln,AU,-34.7333,135.8667,292.82,73,7,4.57,clear sky
170,Bathsheba,BB,13.2167,-59.5167,301.49,69,40,9.26,scattered clouds
171,Maceio,BR,-9.6658,-35.7353,303.84,62,40,5.66,scattered clouds
172,Catamarca,AR,-28.4696,-65.7852,308.58,41,8,2.68,clear sky
173,Saldanha,ZA,-33.0117,17.9442,294.18,87,0,9.84,clear sky
174,Homer,US,59.6425,-151.5483,272.09,69,100,6.69,light snow
175,Hornepayne,CA,49.2138,-84.7705,274.95,100,98,4.94,overcast clouds
176,Kahului,US,20.8947,-156.47,296.4,84,40,4.47,light rain
177,Oranjemund,NA,-28.55,16.4333,291.6,97,59,5.0,broken clouds
178,Opaka,BG,43.45,26.1667,275.29,80,3,2.59,clear sky
179,Tongren,CN,27.7172,109.1853,277.77,83,28,1.79,scattered clouds
180,Ucluelet,CA,48.9329,-125.5528,276.32,83,4,0.51,clear sky
181,Wuwei,CN,37.9281,102.6414,266.61,81,4,1.76,clear sky
182,Klaksvik,FO,62.2266,-6.589,281.66,96,100,14.19,light rain
183,Huarmey,PE,-10.0681,-78.1522,298.33,77,100,4.19,overcast clouds
184,Kanungu,UG,-0.9575,29.7897,292.41,44,5,2.21,clear sky
185,Nemuro,JP,43.3236,145.575,261.93,77,33,9.38,scattered clouds
186,Marsh Harbour,BS,26.5412,-77.0636,294.96,60,1,5.28,clear sky
187,Baripada,IN,21.935,86.7214,291.3,33,0,1.28,clear sky
188,Puerto Escondido,MX,15.85,-97.0667,303.61,62,20,4.12,few clouds
189,Teluk Nibung,ID,3.001,99.8164,296.8,93,100,3.17,overcast clouds
190,Fortuna,US,40.5982,-124.1573,279.34,88,100,2.57,overcast clouds
191,Castro,BR,-24.7911,-50.0119,294.94,92,100,4.3,overcast clouds
192,Ranong,TH,9.9658,98.6348,296.65,86,4,1.62,clear sky
193,Balgazyn,RU,51.0,95.2,247.38,99,69,0.9,broken clouds
194,Cayenne,GF,4.9333,-52.3333,299.17,94,100,3.09,overcast clouds
195,Salalah,OM,17.0151,54.0924,297.2,73,20,1.54,few clouds
196,Banff,CA,51.1762,-115.5698,265.36,62,86,2.06,overcast clouds
197,Tuatapere,NZ,-46.1333,167.6833,288.26,92,100,0.37,overcast clouds
198,Saint Anthony,US,45.0205,-93.218,276.99,91,100,6.17,moderate rain
199,Ponta Delgada,PT,37.7333,-25.6667,287.55,54,20,3.09,few clouds
200,Puerto Ayora,EC,-0.7393,-90.3518,303.13,84,68,1.79,light rain
201,Moerai,PF,-22.4333,-151.3333,299.79,75,99,0.69,overcast clouds
202,Saskylakh,RU,71.9167,114.0833,255.89,96,100,2.28,overcast clouds
203,Avera,US,33.194,-82.5271,294.57,40,34,3.53,scattered clouds
204,El Ejido,ES,36.7763,-2.8146,288.01,66,99,4.79,overcast clouds
205,Woodward,US,36.4337,-99.3904,286.72,47,40,9.77,scattered clouds
206,Shatsk,RU,54.0258,41.7119,266.78,95,100,4.86,overcast clouds
207,Ancud,CL,-41.8697,-73.8203,287.19,89,100,5.52,light rain
208,Bara,NG,10.3744,10.7288,297.84,21,94,3.85,overcast clouds
209,Bengkulu,ID,-3.8004,102.2655,296.94,91,100,2.54,overcast clouds
210,Sao Jose Da Coroa Grande,BR,-8.8978,-35.1478,301.59,61,100,3.54,overcast clouds
211,Oudtshoorn,ZA,-33.5907,22.2014,294.35,73,48,3.63,scattered clouds
212,Vysokogornyy,RU,50.1167,139.15,243.24,100,77,1.34,broken clouds
213,Oussouye,SN,12.485,-16.5469,298.96,50,25,6.59,scattered clouds
214,Esperance,AU,-33.8667,121.9,290.65,85,97,3.77,overcast clouds
215,La Algaba,ES,37.4637,-6.0129,290.25,63,0,1.54,clear sky
216,Saint-Philippe,RE,-21.3585,55.7679,299.92,84,95,6.06,light rain
217,Torremolinos,ES,36.6204,-4.4998,288.36,73,20,5.14,few clouds
218,Fort Nelson,CA,58.8053,-122.7002,256.45,64,75,1.03,broken clouds
219,New Iberia,US,30.0035,-91.8187,295.19,73,100,5.66,overcast clouds
220,Nuuk,GL,64.1835,-51.7216,258.49,72,40,5.66,scattered clouds
221,Grass Valley,US,39.2191,-121.0611,279.59,29,75,4.12,broken clouds
222,Provideniya,RU,64.3833,-173.3,246.8,94,97,2.08,overcast clouds
223,Sarkand,KZ,45.41,79.9186,265.52,69,4,3.65,clear sky
224,Verkhnetulomskiy,RU,68.6073,31.7962,271.22,97,100,2.6,snow
225,Vila Franca Do Campo,PT,37.7167,-25.4333,287.38,63,98,3.09,overcast clouds
226,Villa Corzo,MX,16.1667,-93.25,305.75,25,0,2.45,clear sky
227,Ngunguru,NZ,-35.6167,174.5,291.3,81,8,6.26,clear sky
228,Sao Joao Da Barra,BR,-21.6403,-41.0511,304.2,85,92,7.57,overcast clouds
229,Killarney,IE,52.05,-9.5167,284.18,87,20,3.09,few clouds
230,Harindanga,IN,22.0383,88.3214,291.98,63,0,2.13,clear sky
231,Bambous Virieux,MU,-20.3428,57.7575,299.38,78,40,4.12,scattered clouds
232,Namwala,ZM,-15.7504,26.4384,293.21,94,100,1.98,overcast clouds
233,Mehamn,NO,71.0357,27.8492,278.12,93,75,8.75,light rain
234,Strezhevoy,RU,60.7333,77.5889,257.85,96,100,3.23,overcast clouds
235,Shenzhen,CN,22.5455,114.0683,289.34,75,99,5.43,overcast clouds
236,Tessalit,ML,20.1986,1.0114,299.12,16,100,4.8,overcast clouds
237,Port Hardy,CA,50.6996,-127.4199,275.25,75,20,3.09,few clouds
238,Tynda,RU,55.1667,124.7167,238.91,100,14,0.9,few clouds
239,Padang,ID,-0.9492,100.3543,297.18,85,91,1.48,moderate rain
240,Umm Lajj,SA,25.0213,37.2685,291.84,56,0,4.49,clear sky
241,Atasu,KZ,48.6814,71.6433,251.54,93,71,2.31,broken clouds
242,Kenai,US,60.5544,-151.2583,264.9,88,100,7.2,light snow
243,Blitar,ID,-8.0983,112.1681,295.53,95,100,0.25,light rain
244,Laguna,US,38.421,-121.4238,284.31,36,20,8.23,few clouds
245,Loa Janan,ID,-0.583,117.095,295.69,99,100,0.68,light rain
246,Key West,US,24.5557,-81.7826,305.15,39,0,5.14,clear sky
247,Mar Del Plata,AR,-38.0023,-57.5575,295.9,46,0,4.63,clear sky
248,Nabire,ID,-3.3667,135.4833,297.68,89,100,1.3,overcast clouds
249,Lagoa,PT,39.05,-27.9833,286.76,56,94,4.82,overcast clouds
250,San Quintin,MX,30.4833,-115.95,287.41,72,100,3.66,overcast clouds
251,Krasnyy Yar,RU,46.5331,48.3456,275.11,89,100,8.92,overcast clouds
252,Brae,GB,60.3964,-1.353,280.71,87,100,6.28,overcast clouds
253,Fare,PF,-16.7,-151.0167,300.56,70,5,4.86,clear sky
254,Port Elizabeth,ZA,-33.918,25.5701,295.31,94,75,2.57,broken clouds
255,Torbay,CA,47.6666,-52.7314,271.7,96,100,13.38,snow
256,Batagay,RU,67.6333,134.6333,225.91,99,50,0.88,scattered clouds
257,Nangomba,TZ,-10.9,38.5,295.41,92,100,1.79,overcast clouds
258,Tilichiki,RU,60.4667,166.1,251.36,93,75,4.13,broken clouds
259,Aksarka,RU,66.5606,67.7975,253.15,99,100,3.51,overcast clouds
260,Hirara,JP,24.8,125.2833,290.17,74,100,11.49,overcast clouds
261,Ikryanoye,RU,46.0932,47.7308,275.14,86,100,9.12,overcast clouds
262,Constitucion,CL,-35.3333,-72.4167,294.98,52,6,8.93,clear sky
263,Camana,PE,-16.6228,-72.7111,298.09,86,100,3.29,overcast clouds
264,Jaguaquara,BR,-13.5306,-39.9708,300.37,53,97,3.61,overcast clouds
265,Kemijarvi,FI,66.7131,27.4306,264.29,99,81,1.58,broken clouds
266,Tura,IN,25.5198,90.2201,287.06,38,0,1.25,clear sky
267,Santiago Del Estero,AR,-27.7951,-64.2615,311.53,33,0,2.47,clear sky
268,Berlevag,NO,70.8578,29.0864,278.15,87,100,10.8,moderate rain
269,Boguchany,RU,58.3814,97.4531,260.23,98,100,1.26,overcast clouds
270,Sivaki,RU,52.6333,126.75,244.27,100,23,1.21,few clouds
271,Ndola,ZM,-12.9587,28.6366,291.6,88,100,0.27,overcast clouds
272,Dudinka,RU,69.4058,86.1778,256.83,94,100,5.91,overcast clouds
273,Herzele,BE,50.8697,3.8931,281.44,74,9,2.06,clear sky
274,Abu Dhabi,AE,24.4667,54.3667,298.21,62,4,4.56,clear sky
275,Utica,US,43.1009,-75.2327,281.87,60,29,2.24,scattered clouds
276,Rockland,US,41.1668,-74.0496,285.69,36,0,0.45,clear sky
277,Rawson,AR,-43.3002,-65.1023,294.1,23,67,8.85,broken clouds
278,Ambilobe,MG,-13.2,49.05,296.43,93,53,1.1,broken clouds
279,Adrar,MR,20.5022,-10.0711,298.78,17,100,5.02,overcast clouds
280,Xuanzhou,CN,30.9525,118.7553,275.38,79,11,1.32,few clouds
281,Witu,KE,-2.3889,40.4382,299.24,91,4,3.75,clear sky
282,Soyo,AO,-6.1349,12.3689,299.88,82,73,4.63,broken clouds
283,Vila Velha,BR,-20.3297,-40.2925,303.12,76,20,7.2,few clouds
284,Russell,US,32.3502,-85.1999,295.6,28,0,5.66,clear sky
285,Walvis Bay,NA,-22.9575,14.5053,292.68,72,74,3.09,broken clouds
286,Tabou,CI,4.423,-7.3528,299.33,82,100,1.76,moderate rain
287,Takoradi,GH,4.8845,-1.7554,300.36,82,8,4.69,clear sky
288,Muros,ES,42.7762,-9.0603,286.39,67,82,2.55,broken clouds
289,Aljezur,PT,37.3191,-8.8033,287.86,81,100,5.35,overcast clouds
290,Dzhebariki-Khaya,RU,62.2167,135.8,231.34,100,93,0.43,overcast clouds
291,Carndonagh,IE,55.25,-7.2667,285.94,77,47,6.93,scattered clouds
292,Hasaki,JP,35.7333,140.8333,273.83,53,98,11.06,overcast clouds
293,Zhuhai,CN,22.2769,113.5678,288.03,67,40,9.26,scattered clouds
294,Samarai,PG,-10.6167,150.6667,300.73,78,97,4.12,overcast clouds
295,Lebanon,US,36.2081,-86.2911,293.58,40,0,7.72,clear sky
296,Portland,US,45.5234,-122.6762,277.36,93,75,2.06,broken clouds
297,Nanortalik,GL,60.1432,-45.2371,262.99,71,2,10.25,clear sky
298,Tambun,ID,-6.2641,107.0712,299.84,81,81,3.37,broken clouds
299,Houma,US,29.5958,-90.7195,297.15,73,100,4.92,overcast clouds
300,Qaanaaq,GL,77.484,-69.3632,243.24,91,100,1.13,overcast clouds
301,Kosa,RU,59.9445,54.9977,265.53,97,100,1.57,light snow
302,Angoche,MZ,-16.2325,39.9086,298.75,85,64,5.79,light rain
303,Plettenberg Bay,ZA,-34.0527,23.3716,294.35,88,100,0.37,overcast clouds
304,Ilulissat,GL,69.2167,-51.1,247.16,58,0,3.09,clear sky
305,Corrente,BR,-3.7367,-43.3394,302.46,65,100,2.68,overcast clouds
306,Safaga,EG,26.7292,33.9365,288.87,42,0,9.66,clear sky
307,San-Pedro,CI,4.7485,-6.6363,299.28,84,95,1.56,light rain
308,Nishihara,JP,26.1842,127.7558,289.75,70,100,8.23,overcast clouds
309,Giulianova,IT,42.7612,13.9537,283.7,65,0,1.89,clear sky
310,Chokurdakh,RU,70.6333,147.9167,232.74,100,98,0.72,overcast clouds
311,Vestmannaeyjar,IS,63.4427,-20.2734,277.7,81,40,7.2,scattered clouds
312,Ikwiriri,TZ,-7.9562,38.9716,296.56,89,5,1.74,clear sky
313,Victoria,HK,22.2855,114.1577,289.4,65,100,8.05,overcast clouds
314,Merauke,ID,-8.4667,140.3333,298.76,88,97,5.79,overcast clouds
315,Kampene,CD,-3.6,26.6667,296.21,71,94,1.04,overcast clouds
316,Winnemucca,US,40.973,-117.7357,270.0,40,100,5.75,overcast clouds
317,Lichuan,CN,30.3,108.85,274.33,93,99,1.58,overcast clouds
318,Challans,FR,46.8436,-1.8749,282.57,84,100,4.25,overcast clouds
319,San Carlos De Bariloche,AR,-41.1456,-71.3082,285.01,58,75,10.29,broken clouds
320,Vostok,RU,46.4856,135.8833,249.14,99,100,1.11,overcast clouds
321,Nadym,RU,65.5333,72.5167,258.51,96,98,3.46,overcast clouds
322,Itarema,BR,-2.9248,-39.9167,301.98,69,90,6.85,overcast clouds
323,Narsaq,GL,60.9167,-46.05,262.27,86,3,1.74,clear sky
324,Algodones,MX,20.3888,-105.4773,297.12,50,7,3.86,clear sky
325,Jalu,LY,29.0331,21.5482,287.14,43,66,4.56,broken clouds
326,Katsuura,JP,35.1333,140.3,276.16,55,84,7.63,broken clouds
327,Alushta,UA,44.6667,34.4167,275.96,80,53,3.77,light rain
328,Caramay,PH,10.1815,119.236,296.67,90,100,1.1,overcast clouds
329,Zverinogolovskoye,RU,54.4586,64.8542,259.22,91,100,3.48,overcast clouds
330,Colquechaca,BO,-18.6667,-66.0167,281.61,49,100,3.41,overcast clouds
331,Stephenville,US,32.2207,-98.2023,291.91,35,0,11.32,clear sky
332,Bam,IR,29.106,58.357,291.0,31,26,3.39,scattered clouds
333,Ostrovnoy,RU,68.0531,39.5131,262.82,95,83,3.58,broken clouds
334,Sungaipenuh,ID,-2.0833,101.3833,290.12,94,100,0.83,overcast clouds
335,Kruisfontein,ZA,-34.0033,24.7314,294.16,86,98,3.39,light rain
336,Sortavala,RU,61.7053,30.6918,268.76,96,100,0.76,light snow
337,Campiglia Marittima,IT,43.0602,10.6152,285.2,78,0,3.91,clear sky
338,Macas,EC,-2.3167,-78.1167,294.01,100,75,1.54,light rain
339,Havelock,US,34.8791,-76.9013,291.47,45,0,5.14,clear sky
340,Kerema,PG,-7.9631,145.7785,299.08,86,100,5.59,moderate rain
341,Melo,UY,-32.3667,-54.1833,296.37,74,100,4.77,heavy intensity rain
342,Pisco,PE,-13.7,-76.2167,303.18,54,0,5.66,clear sky
343,Aksu,CN,41.1231,80.2644,271.66,59,79,2.13,broken clouds
344,Kavieng,PG,-2.5744,150.7967,300.36,79,99,5.4,moderate rain
345,Morant Bay,JM,17.8815,-76.4093,302.94,62,2,5.25,clear sky
346,Caucasia,CO,7.9865,-75.1935,306.54,51,48,1.38,scattered clouds
347,Mandalgovi,MN,45.7625,106.2708,262.54,57,35,2.14,scattered clouds
348,Usinsk,RU,65.9939,57.5281,263.74,95,100,6.33,light snow
349,Biak,ID,-0.9131,122.8766,297.89,82,100,2.49,overcast clouds
350,El Sauzal,MX,31.9,-116.6833,285.6,74,89,8.17,overcast clouds
351,Safidon,IN,29.4167,76.6667,287.09,25,0,3.76,clear sky
352,Cherskiy,RU,68.75,161.3,229.63,100,56,0.61,broken clouds
353,Richards Bay,ZA,-28.783,32.0377,298.0,84,98,4.85,overcast clouds
354,Ola,RU,59.5833,151.2833,254.34,88,100,4.76,overcast clouds
355,Mersin,TR,36.862,34.6509,279.84,46,0,1.86,clear sky
356,Jieshi,CN,22.8134,115.8257,285.13,69,2,5.16,clear sky
357,Vallenar,CL,-28.5708,-70.7581,304.06,34,0,5.3,clear sky
358,Kars,TR,40.602,43.095,251.4,77,0,2.06,clear sky
359,Zhangye,CN,38.9342,100.4517,268.9,63,0,2.61,clear sky
360,Sioux Lookout,CA,50.1001,-91.917,276.19,65,100,1.54,overcast clouds
361,Areia Branca,BR,-4.9561,-37.1369,305.26,69,100,9.12,overcast clouds
362,Deputatskiy,RU,69.3,139.9,231.36,98,14,1.9,few clouds
363,Rio Muerto,MX,27.4167,-110.2333,292.81,34,100,0.59,overcast clouds
364,Callaguip,PH,18.0714,120.4867,297.16,83,75,7.2,broken clouds
365,Nhulunbuy,AU,-12.2333,136.7667,299.49,89,75,3.09,moderate rain
366,Lompoc,US,34.6391,-120.4579,287.05,67,75,7.2,mist
367,Yumen,CN,40.2833,97.2,269.25,50,5,3.25,clear sky
368,Sao Jose Do Belmonte,BR,-7.8614,-38.7597,309.56,19,97,3.37,overcast clouds
369,Saint-Joseph,RE,-21.3667,55.6167,299.36,83,94,6.18,overcast clouds
370,Arman,RU,59.7,150.1667,254.27,95,100,4.75,overcast clouds
371,Koksovyy,RU,48.1967,40.5989,270.9,93,98,3.44,overcast clouds
372,Sturgis,US,41.7992,-85.4192,284.86,51,0,6.69,clear sky
373,Dalbandin,PK,28.8947,64.4101,292.56,23,100,0.61,overcast clouds
374,Gerash,IR,27.6652,54.1371,289.23,40,16,1.61,few clouds
375,Labuan,MY,5.2767,115.2417,299.04,78,100,3.45,overcast clouds
376,Tevaitoa,PF,-16.7833,-151.5,300.57,69,12,5.67,few clouds
377,Grindavik,IS,63.8424,-22.4338,275.12,93,75,1.54,broken clouds
378,Kirovskiy,RU,45.0917,133.5136,251.23,100,100,1.35,overcast clouds
379,Shreveport,US,32.5251,-93.7502,289.15,92,100,5.14,light rain
380,Ahipara,NZ,-35.1667,173.1667,292.02,85,46,4.29,scattered clouds
381,Puerto Narino,CO,-3.7703,-70.3831,301.99,78,100,0.58,overcast clouds
382,Debre Tabor,ET,11.85,38.0167,289.05,37,53,1.92,broken clouds
383,Rocha,UY,-34.4833,-54.3333,303.88,34,46,8.55,scattered clouds
384,Garowe,SO,8.4054,48.4845,295.19,58,0,6.2,clear sky
385,Aswan,EG,24.0934,32.907,288.76,29,0,3.6,clear sky
386,San Cristobal,VE,7.7669,-72.225,298.25,45,47,2.47,scattered clouds
387,Birjand,IR,32.8663,59.2211,284.41,58,75,5.14,broken clouds
388,Sawakin,SD,19.1059,37.3321,296.24,73,77,5.07,broken clouds
389,Hofn,IS,64.2539,-15.2082,278.5,82,100,7.04,overcast clouds
390,Margate,GB,51.3813,1.3862,281.31,82,0,0.45,clear sky
391,Poya,NC,-21.35,165.15,295.52,82,30,1.49,scattered clouds
392,Atar,MR,20.5169,-13.0499,301.18,24,97,7.2,overcast clouds
393,Nador,MA,35.174,-2.9287,288.29,82,0,2.57,clear sky
394,Isla Vista,US,34.4133,-119.861,288.94,56,0,5.14,clear sky
395,Siguiri,GN,11.6667,-9.5,304.4,9,41,1.75,scattered clouds
396,Calatayud,ES,41.3535,-1.6432,281.79,55,100,0.69,overcast clouds
397,San Felipe,VE,10.3399,-68.7425,300.23,75,86,3.59,overcast clouds
398,Araouane,ML,18.9048,-3.5265,300.91,14,46,5.41,scattered clouds
399,Beberibe,BR,-4.1797,-38.1306,300.46,82,100,5.0,light rain
400,Pimenta Bueno,BR,-11.6725,-61.1936,302.95,72,100,1.19,overcast clouds
401,Namatanai,PG,-3.6667,152.4333,299.09,86,69,3.76,light rain
402,Myski,RU,53.709,87.8014,248.3,100,85,1.37,overcast clouds
403,Berdychiv,UA,49.8993,28.6024,272.7,86,100,5.94,overcast clouds
404,Kassala,SD,15.451,36.4,301.31,39,100,6.38,overcast clouds
405,Mareeba,AU,-17.0,145.4333,295.64,93,100,1.77,overcast clouds
406,Khuzhir,RU,53.1939,107.3397,259.1,90,71,2.55,broken clouds
407,Saint-Pierre,RE,-21.3393,55.4781,299.97,65,75,7.2,broken clouds
408,Dahuk,IQ,36.8695,42.994,275.84,50,0,1.44,clear sky
409,Belle Fourche,US,44.6714,-103.8522,274.54,69,100,8.59,snow
410,Solnechnyy,RU,50.7214,136.6319,248.46,92,7,1.85,clear sky
411,Verkhnyaya Inta,RU,65.9811,60.3094,261.89,92,99,3.82,overcast clouds
412,Geraldton,AU,-28.7667,114.6,291.38,77,75,4.12,broken clouds
413,Yerbogachen,RU,61.2767,108.0108,246.82,100,100,0.71,overcast clouds
414,Jaisalmer,IN,26.9147,70.9181,296.83,16,5,2.63,clear sky
415,Kapoeta,SS,4.7717,33.5903,303.16,18,67,5.22,broken clouds
416,Copiapo,CL,-27.3667,-70.3333,293.98,35,0,5.0,clear sky
417,Wangaratta,AU,-36.3667,146.3333,287.21,81,0,2.11,clear sky
418,Ixtapa,MX,20.7,-105.2,302.17,33,10,3.24,clear sky
419,Norwich,GB,52.6278,1.2983,280.6,88,1,1.03,clear sky
420,Abong Mbang,CM,3.9833,13.1833,296.91,24,58,0.64,broken clouds
421,Gubkinskiy,RU,64.434,76.5026,259.01,95,100,5.03,overcast clouds
422,Talara,PE,-4.5772,-81.2719,303.57,54,0,5.14,clear sky
423,Joensuu,FI,62.6012,29.7632,271.42,86,40,2.06,scattered clouds
424,Kesinga,IN,20.2,83.2333,290.91,20,0,0.97,clear sky
425,Iskenderun,TR,36.5872,36.1735,276.61,48,0,2.09,clear sky
426,Sept-Iles,CA,50.2001,-66.3821,267.62,57,100,2.57,overcast clouds
427,Miri,MY,4.4148,114.0089,297.23,94,40,1.54,scattered clouds
428,Lukiv,UA,51.0521,25.4006,276.03,74,0,4.48,clear sky
429,Reconquista,AR,-29.15,-59.65,316.65,17,48,5.1,light rain
430,Riyadh,SA,24.6877,46.7219,291.23,24,13,5.45,few clouds
431,Miraflores,MX,19.2167,-98.8083,297.52,23,14,3.72,few clouds
432,Batticaloa,LK,7.7102,81.6924,297.22,75,4,3.79,clear sky
433,Santa Isabel Do Rio Negro,BR,-0.4139,-65.0192,301.4,81,100,0.95,overcast clouds
434,Nokaneng,BW,-19.6667,22.2667,294.8,80,100,1.86,light rain
435,Tecolutilla,MX,18.2833,-93.3167,300.32,71,0,4.31,clear sky
436,Portobelo,PA,9.55,-79.65,299.88,81,37,6.52,light rain
437,Senanga,ZM,-16.1167,23.2667,295.46,74,100,1.1,overcast clouds
438,Fayaoue,NC,-20.65,166.5333,298.77,68,74,4.8,broken clouds
439,Nioro,GM,13.35,-15.75,307.47,12,99,3.97,overcast clouds
440,Chokwe,MZ,-24.5333,32.9833,297.79,92,6,3.18,light rain
441,Nouadhibou,MR,20.931,-17.0347,293.14,73,40,9.26,mist
442,Grand Gaube,MU,-20.0064,57.6608,299.47,69,2,2.24,clear sky
443,Mahajanga,MG,-15.7167,46.3167,299.16,89,20,1.54,few clouds
444,Tasiilaq,GL,65.6145,-37.6368,270.72,97,100,4.58,snow
445,Monte Alegre,BR,-2.0078,-54.0692,302.9,70,84,2.53,broken clouds
446,Bilibino,RU,68.0546,166.4372,235.43,99,18,1.82,few clouds
447,Port-Gentil,GA,-0.7193,8.7815,301.13,83,75,2.57,broken clouds
448,Shakawe,BW,-18.3667,21.85,294.98,78,99,3.2,light rain
449,Tonj,SS,7.2737,28.6822,301.96,19,56,2.35,broken clouds
450,Kualakapuas,ID,-3.0091,114.3876,296.35,97,100,1.41,overcast clouds
451,Presidente Medici,BR,-11.1753,-61.9014,303.05,71,100,1.7,moderate rain
452,Maniitsoq,GL,65.4167,-52.9,249.22,80,27,2.62,scattered clouds
453,Chipurupalle,IN,18.3,83.5667,292.2,82,0,1.59,clear sky
454,Andra,RU,62.5147,65.8878,252.49,100,100,1.57,overcast clouds
455,Whangamata,NZ,-37.2,175.8667,291.11,81,20,8.09,few clouds
456,Kimberley,ZA,-28.7323,24.7623,295.98,73,0,2.57,clear sky
457,Poronaysk,RU,49.2167,143.1167,250.39,89,36,3.94,scattered clouds
458,Ambulu,ID,-8.345,113.6058,297.34,93,100,1.58,overcast clouds
459,Almora,IN,29.6167,79.6667,280.88,48,0,1.08,clear sky
460,High Level,CA,58.5169,-117.136,254.21,71,20,4.12,few clouds
461,Garissa,KE,-0.4536,39.6401,304.31,31,4,3.34,clear sky
462,Isoka,ZM,-10.1606,32.6335,290.75,97,100,0.82,moderate rain
463,Ozernovskiy,RU,51.5,156.5167,268.67,86,100,13.99,snow
464,Igrim,RU,63.1906,64.4162,255.45,99,70,2.14,broken clouds
465,Kabo,CF,7.6994,18.629,301.0,19,89,2.41,overcast clouds
466,Dubbo,AU,-32.25,148.6167,290.22,77,0,4.63,clear sky
467,Lovozero,RU,68.005,35.0117,263.52,87,100,2.33,overcast clouds
468,Manta,EC,-0.95,-80.7333,299.03,83,100,2.57,light rain
469,Katherine,AU,-14.4667,132.2667,297.33,94,100,0.0,overcast clouds
470,Beloha,MG,-25.1667,45.05,297.95,74,44,2.93,scattered clouds
471,Makakilo City,US,21.3469,-158.0858,295.75,75,0,3.09,clear sky
472,Corinto,GR,37.9407,22.9573,279.76,57,0,1.05,clear sky
473,Brazzaville,CG,-4.2658,15.2832,299.87,74,78,1.72,light rain
474,Erenhot,CN,43.6475,111.9767,265.96,38,100,2.36,overcast clouds
475,Gemena,CD,3.25,19.7667,300.52,29,7,1.34,clear sky
476,Asheboro,US,35.7079,-79.8136,293.47,27,0,1.54,clear sky
477,Valdivia,CL,-39.8142,-73.2459,292.2,56,75,2.62,broken clouds
478,San Patricio,US,28.017,-97.5169,301.08,17,2,7.5,clear sky
479,Twentynine Palms,US,34.1356,-116.0542,288.22,43,32,7.25,scattered clouds
480,Lincoln,US,40.8,-96.667,281.64,94,100,4.63,overcast clouds
481,Semey,KZ,50.4111,80.2275,256.13,96,99,2.45,overcast clouds
482,Kota Bahru,MY,6.1333,102.2386,298.12,94,20,0.0,few clouds
483,Kresttsy,RU,58.2452,32.5165,264.97,98,78,2.23,broken clouds
484,Kozan,TR,37.4552,35.8157,275.08,43,0,4.38,clear sky
485,Novyy Svit,UA,47.8059,38.0211,271.18,95,69,3.67,broken clouds
486,Yenagoa,NG,4.9247,6.2642,301.85,62,5,3.91,clear sky
487,Mecca,SA,21.4267,39.8261,293.75,63,12,3.68,few clouds
488,Mount Isa,AU,-20.7333,139.5,298.02,31,100,3.6,overcast clouds
489,Sao Miguel Do Araguaia,BR,-13.275,-50.1628,304.54,56,93,2.13,overcast clouds
490,Zaysan,KZ,47.4667,84.8667,258.86,81,97,1.41,overcast clouds
491,Jian,CN,27.1172,114.9793,279.07,89,100,2.25,overcast clouds
492,Methala,IN,10.2166,76.2166,297.15,86,0,1.9,clear sky
493,Kajiado,KE,-1.8524,36.7768,291.62,52,85,7.45,overcast clouds
494,Lazaro Cardenas,MX,17.9583,-102.2,302.21,52,7,4.22,clear sky
495,Saquena,PE,-4.6667,-73.5167,302.92,73,99,0.91,overcast clouds
496,Rantauprapat,ID,2.1,99.8333,295.7,98,100,1.03,overcast clouds
497,Koygorodok,RU,60.445,50.9968,258.68,100,95,1.4,overcast clouds
498,Tual,ID,-5.6667,132.75,301.22,80,100,9.44,overcast clouds
499,Te Anau,NZ,-45.4167,167.7167,286.7,90,100,1.09,overcast clouds
500,Normandin,CA,48.8333,-72.5321,270.22,63,99,0.51,overcast clouds
501,Clyde River,CA,70.4692,-68.5914,235.28,61,20,1.54,few clouds
502,Najran,SA,17.4924,44.1277,298.51,30,95,3.14,overcast clouds
503,Englewood,US,39.6478,-104.9878,283.6,33,75,3.6,broken clouds
504,Yeniseysk,RU,58.4497,92.1703,246.65,100,100,1.08,overcast clouds
505,Seymchan,RU,62.8833,152.4333,243.65,99,100,0.8,overcast clouds
506,Chara,RU,56.9064,118.2631,251.72,89,100,0.45,overcast clouds
507,Vitim,RU,59.4511,112.5578,250.14,100,100,1.23,overcast clouds
508,Bridgend,GB,51.5058,-3.5772,283.04,85,98,2.24,overcast clouds
509,Vodyane,UA,47.4875,34.4924,273.59,88,100,7.03,overcast clouds
510,Helong,CN,42.5397,128.9972,255.11,92,6,1.98,clear sky
511,Goderich,CA,43.7501,-81.7165,281.99,53,6,5.66,clear sky
512,Watrous,CA,51.6668,-105.4679,257.03,72,67,10.8,broken clouds
513,Ginda,IN,30.6945,78.4932,283.24,30,0,3.69,clear sky
514,Aguas Vermelhas,BR,-15.7472,-41.46,303.14,37,39,2.0,scattered clouds
515,Nayoro,JP,44.3506,142.4578,254.14,99,21,0.06,few clouds
516,Bonavista,CA,48.6499,-53.1147,271.51,94,100,15.05,snow
517,Sitka,US,57.0531,-135.33,274.09,69,100,5.14,overcast clouds
518,Suez,EG,29.9737,32.5263,285.52,58,40,4.21,scattered clouds
519,Arlit,NE,18.7369,7.3853,293.4,20,17,7.37,few clouds
520,Sambava,MG,-14.2667,50.1667,298.28,86,100,4.91,light rain
521,Kitob,UZ,39.0843,66.8332,278.28,97,100,1.57,moderate rain
522,Banjar,ID,-8.19,114.9675,297.89,91,100,2.07,light rain
523,El Alto,PE,-4.2714,-81.2147,301.96,67,75,5.16,broken clouds
524,Zakupne,UA,49.1194,26.3376,273.78,84,6,7.05,clear sky
525,Nantucket,US,41.2835,-70.0995,284.23,62,0,7.72,clear sky
526,Vila,PT,42.0304,-8.1588,283.64,76,22,2.08,few clouds
527,Westport,US,41.1415,-73.3579,285.72,31,0,4.12,clear sky
528,Le Port,RE,-20.9373,55.2919,300.15,73,83,2.71,light rain
529,Honiara,SB,-9.4333,159.95,298.86,90,100,1.43,overcast clouds
530,Mapiri,BO,-15.25,-68.1667,299.34,90,78,0.6,broken clouds
531,Kampot,KH,10.6167,104.1833,298.18,81,17,2.97,few clouds
532,Vangaindrano,MG,-23.35,47.6,296.53,87,29,1.2,light rain
533,Antofagasta,CL,-23.65,-70.4,297.75,67,8,4.07,clear sky
534,Svetlaya,RU,46.5389,138.3297,258.54,65,7,3.5,clear sky
535,Periyakulam,IN,10.1167,77.55,293.65,53,0,1.1,clear sky
536,Bemidji,US,47.4736,-94.8803,277.62,75,40,2.57,scattered clouds
537,Iskateley,RU,67.6803,53.1512,257.43,100,83,2.5,broken clouds
538,Tezu,IN,27.9167,96.1667,289.03,48,77,1.89,broken clouds
539,Mto Wa Mbu,TZ,-3.35,35.85,296.97,41,17,1.16,few clouds
540,Baykit,RU,61.67,96.37,253.67,98,100,1.19,overcast clouds
541,Derzhavinsk,KZ,51.1,66.3167,255.89,91,100,3.71,overcast clouds
542,Hede,CN,33.7681,120.2517,273.38,77,80,3.14,broken clouds
543,Okha,RU,53.5739,142.9478,250.33,88,95,7.16,overcast clouds
544,Bandarbeyla,SO,9.4942,50.8122,297.49,71,4,6.23,clear sky
545,Waraseoni,IN,21.75,80.0333,290.63,21,0,2.16,clear sky
546,Metro,ID,-5.1131,105.3067,296.82,84,98,0.5,overcast clouds
547,Along,IN,28.1667,94.7667,284.53,66,59,0.94,broken clouds
548,Shugurovo,RU,54.5083,52.1326,260.93,95,87,3.18,overcast clouds
549,Ulan-Ude,RU,51.8261,107.6098,250.09,77,92,1.0,smoke
550,Maamba,ZM,-17.3667,27.15,294.93,91,100,1.48,light rain
551,Fort Saint James,CA,54.4333,-124.25,265.54,83,11,0.76,few clouds
552,Puqi,CN,29.7167,113.8833,276.18,77,0,0.29,clear sky
553,Port Hedland,AU,-20.3167,118.5667,303.18,79,73,2.57,broken clouds
554,Zitlala,MX,17.6333,-99.0833,298.04,32,8,2.19,clear sky
555,Ciego De Avila,CU,21.84,-78.7619,302.94,32,0,4.51,clear sky
556,Nanning,CN,22.8167,108.3167,285.4,61,54,3.14,broken clouds
557,Bozhou,CN,33.8772,115.7703,274.54,49,1,1.44,clear sky
558,Romodanovo,RU,54.4275,45.3296,264.73,96,100,2.52,overcast clouds
559,Uray,RU,60.1247,64.7758,262.28,98,100,2.06,overcast clouds
560,Egvekinot,RU,66.3167,-179.1667,247.04,93,100,1.97,overcast clouds
561,Conakry,GN,9.538,-13.6773,303.19,70,75,3.09,haze
562,Sola,VU,-13.8833,167.55,296.52,94,20,0.0,few clouds
563,Davila,PH,18.4726,120.5763,297.14,81,14,10.0,few clouds
564,Gladstone,AU,-23.85,151.25,298.11,83,100,2.57,overcast clouds
565,Yarada,IN,17.65,83.2667,295.33,94,0,1.03,mist
566,Bronnoysund,NO,65.4625,12.1997,279.15,93,75,5.36,broken clouds
567,Duldurga,RU,50.6761,113.5931,257.2,95,100,0.57,overcast clouds
568,Carbonia,IT,39.1672,8.5222,283.71,87,0,1.52,clear sky
569,Ntoum,GA,0.3833,9.7833,298.46,88,72,2.05,light rain
570,Sabang,ID,5.8933,95.3214,300.87,73,99,4.97,overcast clouds
571,Champerico,GT,14.3,-91.9167,307.45,57,0,5.52,clear sky
572,Itaituba,BR,-4.2761,-55.9836,304.24,70,40,5.14,scattered clouds
573,Luoyang,CN,34.6836,112.4536,275.67,65,79,1.02,broken clouds
574,Oktyabrskiy,RU,54.4815,53.471,263.07,93,92,2.64,overcast clouds
575,Trois-Rivieres,CA,46.3501,-72.5491,275.12,77,100,3.6,overcast clouds
576,Fenoarivo,MG,-18.933,47.4354,291.19,88,75,5.66,broken clouds
577,Parrita,CR,9.5201,-84.3225,303.75,52,1,3.49,clear sky
578,Jishou,CN,28.3167,109.7167,278.08,74,57,1.04,broken clouds
579,Veraval,IN,20.9,70.3667,296.19,51,1,2.79,clear sky
580,Moyale,KE,3.5167,39.0584,296.61,30,6,4.84,clear sky
581,Sisimiut,GL,66.9395,-53.6735,246.8,86,60,2.0,broken clouds
582,Camacha,PT,33.0833,-16.3333,286.83,63,20,9.77,few clouds
583,Glenwood Springs,US,39.5505,-107.3248,275.01,79,100,3.58,light snow
584,Touros,BR,-5.1989,-35.4608,301.98,69,86,6.76,overcast clouds
585,Hambantota,LK,6.1241,81.1185,297.34,94,20,1.54,few clouds
586,Taltal,CL,-25.4,-70.4833,296.24,72,25,3.79,scattered clouds
587,Ningxiang,CN,37.34,111.2052,268.22,75,1,1.17,clear sky
588,Nogliki,RU,51.8333,143.1667,251.51,89,99,6.57,overcast clouds
589,Cap Malheureux,MU,-19.9842,57.6142,299.52,70,2,1.34,clear sky
590,Beringovskiy,RU,63.05,179.3167,248.61,91,99,3.18,overcast clouds
591,Qui Nhon,VN,13.7667,109.2333,296.74,85,11,4.26,light rain
592,Yakeshi,CN,49.2833,120.7333,242.87,98,58,1.52,broken clouds
593,Ormara,PK,25.2088,64.6357,295.43,81,12,4.37,few clouds
594,Vao,NC,-22.6667,167.4833,296.67,62,11,3.23,few clouds
595,Kilrush,IE,52.6397,-9.4833,284.01,74,100,9.25,overcast clouds
596,Evensk,RU,61.95,159.2333,258.78,82,100,6.07,overcast clouds
597,Mount Pleasant,US,32.7941,-79.8626,295.44,56,0,3.6,clear sky
598,Umea,SE,63.8284,20.2597,273.1,86,0,0.0,clear sky
599,San Luis,AR,-33.295,-66.3356,303.69,27,0,7.32,clear sky
600,Belmonte,BR,-15.8631,-38.8828,301.63,65,13,3.91,few clouds
601,Shellbrook,CA,53.2168,-106.4011,257.72,79,70,5.67,broken clouds
602,Otjimbingwe,NA,-22.35,16.1333,300.45,27,6,4.78,clear sky
603,Santo Domingo,DO,18.5001,-69.9886,304.84,54,40,3.09,scattered clouds
604,Gilgit,PK,35.9221,74.3087,275.36,72,89,1.17,overcast clouds
605,Iranshahr,IR,27.2025,60.6848,292.34,24,0,3.09,clear sky
606,Shu,KZ,43.5983,73.7614,266.63,89,87,2.47,overcast clouds
607,Grimshaw,CA,56.1834,-117.6027,257.94,66,100,3.6,overcast clouds
608,Vasterhaninge,SE,59.1167,18.1,275.28,88,13,2.77,few clouds
609,Ewo,CG,-0.8725,14.8206,297.41,84,100,0.3,moderate rain
610,Sabha,LY,27.0377,14.4283,285.27,39,18,3.76,few clouds
611,Ligayan,PH,4.6533,119.4706,300.06,76,100,8.56,overcast clouds
612,Mabaruma,GY,8.2,-59.7833,303.15,70,40,4.12,scattered clouds
613,Dauphin,CA,51.1494,-100.0502,265.23,73,100,8.23,light snow
614,Ayagoz,KZ,47.9714,80.4392,255.5,96,76,1.21,broken clouds
615,Rancharia,BR,-22.2292,-50.8931,301.56,66,16,4.56,few clouds
616,Benguela,AO,-12.5763,13.4055,297.78,81,62,1.94,broken clouds
617,Jackson,US,42.4165,-122.8345,276.56,82,100,2.06,mist
618,Fomboni,KM,-12.28,43.7425,300.59,73,94,1.17,overcast clouds
619,Sao Jose De Ribamar,BR,-2.5619,-44.0542,303.36,84,72,6.79,light rain
620,Tiznit,MA,29.5833,-9.5,284.13,67,100,3.76,overcast clouds
621,Craig,US,40.5153,-107.5464,269.94,54,100,2.57,overcast clouds
622,Paris,FR,48.8534,2.3488,284.58,72,0,2.57,clear sky
623,Glinde,DE,53.55,10.2,279.92,91,0,2.06,clear sky
624,Beira,MZ,-19.8436,34.8389,303.2,79,40,6.17,light rain
625,Lasem,ID,-6.6922,111.4527,297.55,90,100,2.18,moderate rain
626,Abonnema,NG,4.7084,6.7931,301.58,72,8,5.16,clear sky
627,Ust-Nera,RU,64.5667,143.2,230.3,98,75,0.94,broken clouds
628,San Juan De La Maguana,DO,18.8059,-71.2299,304.62,26,0,2.83,clear sky
629,Mariental,NA,-24.6333,17.9667,304.54,14,52,4.69,broken clouds
630,Natal,BR,-5.795,-35.2094,304.51,58,20,7.2,few clouds
631,Faya,SA,18.3851,42.4509,288.44,39,84,3.44,broken clouds
632,Tukrah,LY,32.5341,20.5791,285.65,69,37,5.6,scattered clouds
633,Kloulklubed,PW,7.0419,134.2556,297.43,79,100,7.39,light rain
634,Gravdal,NO,68.1214,13.5031,279.09,100,75,2.57,broken clouds
635,Shakiso,ET,5.75,38.9167,288.37,33,5,1.45,clear sky
636,Kisangani,CD,0.5167,25.2,298.82,53,6,0.59,clear sky
637,Ryotsu,JP,38.0833,138.4333,272.77,59,90,7.57,light snow
638,Price,US,39.5994,-110.8107,270.99,44,100,4.82,overcast clouds
639,Aurillac,FR,44.9167,2.45,283.64,32,0,3.09,clear sky
640,Skibbereen,IE,51.55,-9.2667,284.88,83,100,9.37,overcast clouds
641,Huejuquilla El Alto,MX,22.6,-103.8667,295.17,17,25,6.85,scattered clouds
642,Soe,ID,-9.8607,124.284,292.03,94,100,1.26,overcast clouds
643,Kalmunai,LK,7.4167,81.8167,296.41,79,3,3.36,clear sky
644,Xining,CN,36.6167,101.7667,262.48,85,61,1.3,broken clouds
645,Mbandaka,CD,0.0487,18.2603,298.46,66,10,1.08,clear sky
646,Lyngseidet,NO,69.5763,20.2189,278.15,98,100,4.37,overcast clouds
647,Ipubi,BR,-7.6519,-40.1489,308.8,22,78,3.87,broken clouds
648,Meadow Lake,US,34.8014,-106.5436,280.08,43,93,11.81,overcast clouds
649,Pilar,BR,-9.5972,-35.9567,303.11,53,100,5.61,overcast clouds
650,Tokur,RU,53.1333,132.9,235.3,98,50,1.31,scattered clouds
651,Marinette,US,45.1,-87.6307,280.2,61,0,3.09,clear sky
652,Benghazi,LY,32.1167,20.0667,287.21,62,14,6.09,few clouds
653,Pundaguitan,PH,6.3711,126.1689,297.63,86,100,5.7,overcast clouds
654,Komsomolskiy,UZ,40.4272,71.7189,276.55,87,75,1.03,mist
655,Lavrentiya,RU,65.5833,-171.0,244.45,92,100,3.06,overcast clouds
656,Pustoshka,RU,56.3355,29.369,268.71,96,45,2.76,scattered clouds
657,Alta Floresta,BR,-9.8756,-56.0861,309.05,46,75,1.03,broken clouds
658,Oksfjord,NO,70.2396,22.3479,279.25,97,100,4.25,overcast clouds
659,Beyneu,KZ,45.3167,55.2,269.19,82,70,5.77,broken clouds
660,Tytuvenai,LT,55.6,23.2,273.1,81,12,1.88,few clouds
661,Jiangyou,CN,31.7667,104.7167,278.7,82,62,0.28,broken clouds
662,Matara,LK,5.9485,80.5353,296.96,88,18,0.92,few clouds
663,Florianopolis,BR,-27.6146,-48.5012,304.05,66,20,5.66,few clouds
664,Reitz,ZA,-27.8014,28.4273,290.81,78,84,2.52,broken clouds
665,Okhotsk,RU,59.3833,143.3,246.13,79,9,6.0,clear sky
666,Ongandjera,NA,-17.8833,15.0667,303.19,19,12,1.29,few clouds
667,Lasa,IT,46.6166,10.7002,279.46,37,0,0.48,clear sky
668,Verkhovazhye,RU,60.7472,42.0465,269.0,95,100,3.5,light snow
669,Esmeraldas,BR,-19.7625,-44.3139,306.21,77,90,2.76,overcast clouds
670,Dali,CN,25.7,100.1833,281.61,46,0,1.76,clear sky
671,Afua,BR,-0.1567,-50.3867,297.54,95,100,2.99,light rain
672,Cascais,PT,38.6979,-9.4215,289.79,77,75,9.39,broken clouds
673,Kropotkin,RU,45.4375,40.5756,273.45,99,100,5.2,light snow
674,Valparaiso,CL,-33.0393,-71.6273,304.28,28,0,7.2,clear sky
675,Muli,MV,2.9167,73.5667,300.18,79,21,5.86,few clouds
676,Rosetta,EG,31.4044,30.4164,285.55,60,9,3.77,clear sky
677,Kudat,MY,6.8837,116.8477,297.2,100,20,0.51,few clouds
678,Coihaique,CL,-45.5752,-72.0662,287.49,67,75,0.0,light rain
679,Falakata,IN,26.5208,89.2055,288.6,44,0,1.55,clear sky
680,Yulara,AU,-25.2406,130.9889,303.03,28,96,0.83,overcast clouds
681,Alihe,CN,50.5667,123.7167,248.34,98,5,1.31,clear sky
682,Adzhamka,UA,48.5424,32.5354,272.89,92,100,7.49,light snow
683,Rocky Mountain House,CA,52.3668,-114.9188,265.21,73,100,2.06,overcast clouds
684,Saint-Felicien,CA,48.6501,-72.4491,270.43,80,20,1.54,few clouds
685,Rawlins,US,41.7911,-107.2387,266.12,63,0,10.29,clear sky
686,Minna,NG,9.6139,6.5569,305.99,13,0,4.63,clear sky
687,Yurino,RU,56.2942,46.3039,260.96,98,100,1.44,overcast clouds
688,Boralday,KZ,43.3578,76.8594,265.07,93,75,2.0,fog
689,Taoudenni,ML,22.6783,-3.9836,297.19,20,100,7.7,overcast clouds
690,Sedam,IN,17.1773,77.2824,295.05,17,0,2.74,clear sky
691,Olot,ES,42.181,2.4901,281.35,74,55,0.89,broken clouds
692,Varhaug,NO,58.6147,5.6457,279.76,90,100,6.62,overcast clouds
693,Tigil,RU,57.8,158.6667,252.9,94,100,1.3,overcast clouds
694,Linfen,CN,36.0889,111.5189,274.12,85,8,0.35,clear sky
695,Keti Bandar,PK,24.1447,67.4497,294.79,80,0,3.34,clear sky
696,Mapiripan,CO,2.8892,-72.1256,306.5,39,100,2.66,overcast clouds
697,Saint-Augustin,CA,51.226,-58.6502,264.92,75,100,4.29,overcast clouds
698,Yantzaza,EC,-3.8278,-78.7594,301.18,60,100,1.53,light rain
699,Podstepki,RU,53.5151,49.1355,266.67,96,100,3.12,light snow
700,Kysyl-Syr,RU,63.8986,122.7617,235.4,100,95,1.32,overcast clouds
701,Ust-Kuyga,RU,70.0167,135.6,226.54,99,72,2.67,broken clouds
702,Jacareacanga,BR,-6.2222,-57.7528,303.88,66,97,1.25,overcast clouds
703,Eureka,US,40.8021,-124.1637,280.33,91,98,4.02,overcast clouds
704,Carballo,ES,43.213,-8.691,288.83,71,86,1.43,overcast clouds
705,Corrales,US,35.2378,-106.6067,280.51,54,75,9.26,broken clouds
706,Baoying,CN,33.2292,119.3092,273.08,73,8,2.63,clear sky
707,College,US,64.8569,-147.8028,253.19,73,75,2.06,broken clouds
708,Baisha,CN,26.5222,110.9311,275.44,91,31,0.33,scattered clouds
709,Deer Lake,CA,49.1667,-57.4316,267.07,73,100,8.23,light snow
710,Puri,IN,19.8,85.85,293.44,64,0,2.86,clear sky
711,Mayo,US,38.8876,-76.5119,289.33,41,0,5.14,clear sky
712,Port Macquarie,AU,-31.4333,152.9167,290.31,71,100,2.69,overcast clouds
713,Severodvinsk,RU,64.5635,39.8302,267.21,93,55,2.38,broken clouds
714,Palmas De Monte Alto,BR,-14.2672,-43.1619,306.63,26,14,3.22,few clouds
715,Zharkent,KZ,44.1628,80.0,265.44,79,95,2.19,overcast clouds
716,Loandjili,CG,-4.7561,11.8578,299.95,80,73,2.97,broken clouds
717,Denpasar,ID,-8.65,115.2167,298.96,94,75,2.57,thunderstorm with heavy rain
718,Shimoda,JP,34.6667,138.95,274.87,81,100,3.23,overcast clouds
719,Dingle,PH,10.9995,122.6711,295.67,92,43,3.1,scattered clouds
720,Mwinilunga,ZM,-11.7358,24.4293,291.06,92,100,0.33,overcast clouds
721,Coolum Beach,AU,-26.5333,153.1,292.65,97,52,3.44,broken clouds
722,Bentong,MY,3.5181,101.9079,298.02,97,100,0.61,overcast clouds
723,Yongan,CN,39.6957,113.6871,266.16,76,100,1.46,overcast clouds
724,Majene,ID,-3.5403,118.9707,298.77,78,100,3.93,overcast clouds
725,Pimentel,PE,-6.8367,-79.9342,303.31,58,75,5.14,broken clouds
726,Jinxiang,CN,27.4327,120.6062,280.92,71,32,4.74,scattered clouds
727,Gat,IL,31.61,34.7642,285.53,100,9,2.28,clear sky
728,Chato,TZ,-2.6378,31.7669,294.59,60,18,2.02,few clouds
729,Yanam,IN,16.7333,82.2167,292.65,93,0,0.77,clear sky
730,Petropavlovsk-Kamchatskiy,RU,53.0452,158.6483,268.48,80,100,7.0,light shower snow
